[
  {
    "name": "Golden Taj",
    "contact_details": {
      "phone": "(408) 641-7148",
      "location": "San Jose, CA",
      "specialty": "Traditional Punjabi and North Indian Catering"
    }
  },
  {
    "name": "Good Choice Events & Decor / HSW Decor",
    "contact_details": {
      "phone": "(408) 896-1502",
      "location": "San Jose, CA",
      "specialty": "Custom Event Decoration and Rental Services"
    }
  },
  {
    "name": "Gracey Beauty Parlor",
    "contact_details": {
      "phone": "(408) 293-8188",
      "location": "2997 Zion Ln, San Jose, CA 95132"
    }
  },
  {
    "name": "Grand Carriages",
    "contact_details": {
      "phone": "(925) 443-4677",
      "website": "http://www.grandcarriages.com/",
      "location": "Livermore, CA",
      "specialty": "Horse-Drawn Carriages for Weddings and Baraats"
    }
  },
  {
    "name": "Grand Design Photography",
    "contact_details": {
      "phone": "(415) 305-6577",
      "website": "https://granddesignphoto.com/",
      "location": "Bay Area, CA"
    }
  },
  {
    "name": "Grand Pavillion Banquet Hall",
    "contact_details": {
      "phone": "(916) 421-1188",
      "website": "https://grandpavillion.com/",
      "location": "7403 Elsie Ave, Sacramento, CA 95828"
    }
  },
  {
    "name": "Grub Desi",
    "contact_details": {
      "phone": "(408) 641-7148",
      "location": "447 Casselino Drive, San Jose, CA",
      "specialty": "Home-style Indian Meal Delivery and Catering"
    }
  },
  {
    "name": "Gurdwara Dasmesh Darbar",
    "contact_details": {
      "phone": "(916) 383-2041",
      "location": "Sacramento, CA"
    }
  },
  {
    "name": "Gurdwara Gur Nanak Parkash",
    "contact_details": {
      "phone": "(559) 237-5678",
      "location": "Fresno, CA"
    }
  },
  {
    "name": "Gurdwara Sahib Tracy",
    "contact_details": {
      "phone": "(209) 830-6242",
      "location": "16101 W Grant Line Rd, Tracy, CA 95304"
    }
  },
  {
    "name": "Gurdwara Singh Sabha Buena Park",
    "contact_details": {
      "phone": "(714) 228-0678",
      "location": "7122 Orangethorpe Ave, Buena Park, CA 90621"
    }
  },
  {
    "name": "Gurdwara Singh Sabha Milpitas",
    "contact_details": {
      "phone": "(408) 263-0678",
      "location": "1821 S Milpitas Blvd, Milpitas, CA 95035"
    }
  },
  {
    "name": "Gurusurya Khalsa Photography",
    "contact_details": {
      "phone": "(415) 300-5058",
      "website": "https://www.gurusuryakhalsa.com/",
      "location": "Bay Area, CA"
    }
  }
]