[
  {
    "name": "Palazzo Banquet Hall",
    "contact_details": {
      "phone": "(408) 896-1502",
      "location": "San Jose, CA",
      "specialty": "Event Venue for Receptions and Parties"
    }
  },
  {
    "name": "Pallavi's Henna",
    "contact_details": {
      "phone": "(510) 909-9889",
      "location": "Bay Area, CA",
      "specialty": "Traditional and Contemporary Mehndi"
    }
  },
  {
    "name": "Palo Alto Hills Golf And Country Club",
    "contact_details": {
      "phone": "(650) 948-1800",
      "website": "https://www.pahgcc.net/",
      "location": "3000 Alexis Dr, Palo Alto, CA 94304"
    }
  },
  {
    "name": "Pam Photography",
    "contact_details": {
      "phone": "(415) 305-6577",
      "location": "Bay Area, CA"
    }
  },
  {
    "name": "Pamela's Henna",
    "contact_details": {
      "phone": "(510) 508-4481",
      "location": "Union City, CA"
    }
  },
  {
    "name": "Panache Event Management",
    "contact_details": {
      "phone": "(408) 320-1378",
      "location": "Bay Area, CA",
      "specialty": "Full-Service Wedding Coordination"
    }
  },
  {
    "name": "Paon Photography",
    "contact_details": {
      "phone": "(415) 300-5058",
      "location": "Bay Area, CA"
    }
  },
  {
    "name": "Paradigm Productions",
    "contact_details": {
      "phone": "(415) 305-6577",
      "website": "http://paradigm-productions.com/",
      "location": "San Francisco, CA",
      "specialty": "High-end AV and Event Production"
    }
  },
  {
    "name": "Pardeep K. Brar Photography",
    "contact_details": {
      "phone": "(510) 909-9889",
      "location": "Bay Area, CA"
    }
  },
  {
    "name": "Pardon My French",
    "contact_details": {
      "phone": "(408) 724-4444",
      "location": "Santa Clara, CA",
      "specialty": "Bakery and Dessert Catering"
    }
  },
  {
    "name": "Park Avenue Photography",
    "contact_details": {
      "phone": "(916) 246-0558",
      "website": "http://parkavephotography.com/",
      "location": "Sacramento, CA"
    }
  },
  {
    "name": "Park View Banquets",
    "contact_details": {
      "phone": "(408) 823-3888",
      "location": "San Jose, CA"
    }
  },
  {
    "name": "Parkside Hall",
    "contact_details": {
      "phone": "(408) 792-4194",
      "location": "180 Park Ave, San Jose, CA 95113",
      "specialty": "San Jose Convention Center Event Space"
    }
  },
  {
    "name": "Party Fiesta Rental",
    "contact_details": {
      "phone": "(408) 292-6080",
      "website": "https://partyfiestarental.com/",
      "location": "1510 S Bascom Ave, San Jose, CA 95125"
    }
  },
  {
    "name": "Party Gifting",
    "contact_details": {
      "phone": "(510) 932-9019",
      "location": "Bay Area, CA",
      "specialty": "Custom Wedding Favors and Gifting"
    }
  }
]