[
  {
    "name": "Face Painting By Poppy",
    "contact_details": {
      "phone": "(408) 641-7148",
      "website": "https://www.facepaintingbypoppy.com/",
      "location": "2071 Laurelei Ave, San Jose, CA 95128"
    }
  },
  {
    "name": "Fatafati Foodie",
    "contact_details": {
      "phone": "(408) 896-1502",
      "location": "San Jose, CA",
      "specialty": "Bengali and North Indian Home-Style Catering"
    }
  },
  {
    "name": "Fedora Floral",
    "contact_details": {
      "phone": "(559) 903-3675",
      "website": "https://fedoraflowers.com/",
      "location": "Fresno, CA"
    }
  },
  {
    "name": "Festa Rentals And Decorations",
    "contact_details": {
      "phone": "(925) 321-1100",
      "location": "San Ramon, CA",
      "specialty": "Event Rentals and Custom Drapery"
    }
  },
  {
    "name": "Filmtwist Productions",
    "contact_details": {
      "phone": "(408) 320-1378",
      "website": "http://filmtwist.com/",
      "location": "Bay Area, CA"
    }
  },
  {
    "name": "Fine Henna Creations",
    "contact_details": {
      "phone": "(510) 909-9889",
      "location": "Hayward, CA",
      "specialty": "Bridal Mehndi and Traditional Body Art"
    }
  },
  {
    "name": "Fioroni Photography",
    "contact_details": {
      "phone": "(510) 305-6577",
      "website": "https://www.fioroniphotography.com/",
      "location": "San Leandro, CA"
    }
  },
  {
    "name": "Firefly Events",
    "contact_details": {
      "phone": "(707) 563-0427",
      "website": "https://www.fireflyevents.com/",
      "location": "Forestville, CA"
    }
  },
  {
    "name": "Flair-Event Design And Planning",
    "contact_details": {
      "phone": "(415) 300-5058",
      "website": "https://www.flair-events.com/",
      "location": "Bay Area, CA"
    }
  },
  {
    "name": "Flamingo Palace",
    "contact_details": {
      "phone": "(707) 644-7502",
      "location": "910 Lincoln Rd E, Vallejo, CA 94591"
    }
  },
  {
    "name": "Floral Creations By Nasreen",
    "contact_details": {
      "phone": "(408) 517-4686",
      "location": "Morgan Hill, CA",
      "specialty": "South Asian Floral Design and Garlands"
    }
  },
  {
    "name": "Floramor Studios",
    "contact_details": {
      "phone": "(415) 275-4776",
      "website": "https://floramor.com/",
      "location": "Bay Area, CA"
    }
  },
  {
    "name": "Flowers By Ivy",
    "contact_details": {
      "phone": "(408) 641-1188",
      "location": "San Jose, CA"
    }
  },
  {
    "name": "Focus 7L Photography",
    "contact_details": {
      "phone": "(415) 305-6577",
      "website": "https://www.focus7l.com/",
      "location": "San Francisco, CA"
    }
  },
  {
    "name": "Forever Love One Stop Bridal",
    "contact_details": {
      "phone": "(408) 293-8188",
      "location": "3016 Nieman Blvd, San Jose, CA"
    }
  },
  {
    "name": "Forever Moments Photographer",
    "contact_details": {
      "phone": "(408) 823-3888",
      "location": "San Jose, CA"
    }
  },
  {
    "name": "Fotomomentz Photography",
    "contact_details": {
      "phone": "(510) 932-9019",
      "website": "http://fotomomentz.com/",
      "location": "Bay Area, CA"
    }
  },
  {
    "name": "Frank Gomez Photography",
    "contact_details": {
      "phone": "(408) 779-1111",
      "website": "https://www.frankgomezphotography.com/",
      "location": "Morgan Hill, CA"
    }
  }
]