[
  {
    "name": "Jason Rendel Photography",
    "contact_details": {
      "phone": "(415) 305-6577",
      "website": "https://www.jasonrendel.com/",
      "location": "San Francisco Bay Area, CA"
    }
  },
  {
    "name": "Jeet Beauty Lounge",
    "contact_details": {
      "phone": "(510) 651-5182",
      "location": "43625 Mission Blvd suite 104, Fremont, CA 94539",
      "specialty": "Bridal Makeup, Hair, and Henna"
    }
  },
  {
    "name": "Jenny Soi Photography",
    "contact_details": {
      "phone": "(415) 300-5058",
      "website": "https://jennysoi.com/",
      "location": "Bay Area, CA"
    }
  },
  {
    "name": "Jhakaas Entertainment Services",
    "contact_details": {
      "phone": "(408) 320-1378",
      "location": "San Francisco, CA",
      "specialty": "Bollywood Catering and Event Entertainment"
    }
  },
  {
    "name": "Jhansi Beauty Care",
    "contact_details": {
      "phone": "(408) 255-2555",
      "location": "20540 Stevens Creek Boulevard, Cupertino, CA 95014"
    }
  },
  {
    "name": "Jihan Cerda Photography",
    "contact_details": {
      "phone": "(415) 305-6577",
      "website": "https://jihancerda.com/",
      "location": "San Francisco / Bay Area, CA"
    }
  },
  {
    "name": "Jinder Threading Salon",
    "contact_details": {
      "phone": "(408) 244-6009",
      "location": "Santa Clara, CA",
      "specialty": "Threading, Waxing, and Henna Art"
    }
  },
  {
    "name": "Jocelyn Knight Photography",
    "contact_details": {
      "phone": "(510) 932-9019",
      "website": "http://jocelynknight.com/",
      "location": "Bay Area, CA"
    }
  },
  {
    "name": "Joey's DJ",
    "contact_details": {
      "phone": "(559) 584-1122",
      "location": "Hanford, CA",
      "specialty": "Mobile DJ and Lighting Services"
    }
  },
  {
    "name": "Johal Henna",
    "contact_details": {
      "phone": "(559) 903-3675",
      "location": "Fresno, CA",
      "specialty": "Traditional Bridal Mehndi"
    }
  },
  {
    "name": "Johan Kayati Photography",
    "contact_details": {
      "phone": "(925) 321-1100",
      "location": "1542 Craiglee Way, San Ramon, CA 94582"
    }
  },
  {
    "name": "Joseph Pascua Photography",
    "contact_details": {
      "phone": "(415) 305-6577",
      "website": "https://www.josephpascua.com/",
      "location": "Bay Area, CA"
    }
  },
  {
    "name": "Joy Of Henna",
    "contact_details": {
      "phone": "(415) 505-1808",
      "website": "https://joyofhenna.com/",
      "location": "1301 Fulton St, San Francisco, CA 94117"
    }
  },
  {
    "name": "Jump City Rentals",
    "contact_details": {
      "phone": "(209) 668-6623",
      "website": "http://www.jumpcityrentals.com/",
      "location": "Turlock, CA",
      "specialty": "Party Rentals, Bouncers, and Event Equipment"
    }
  },
  {
    "name": "Junaid Sharief Catering Service",
    "contact_details": {
      "phone": "(510) 791-2422",
      "location": "37045 Magnolia St, Newark, CA"
    }
  }
]