[
  {
    "name": "Gill Decor",
    "contact_details": {
      "phone": "(510) 508-4481",
      "location": "Union City / Fremont, CA",
      "specialty": "Traditional and Fusion Event Decor"
    }
  },
  {
    "name": "Gill Digital Video",
    "contact_details": {
      "phone": "(510) 517-4686",
      "website": "http://gilldigitalvideo.com/",
      "location": "Union City, CA",
      "specialty": "Wedding Cinematography & Video Production"
    }
  },
  {
    "name": "Gingi Freeman Photography",
    "contact_details": {
      "phone": "(559) 901-3837",
      "website": "http://gingifreemanphotography.com/",
      "location": "Visalia, CA",
      "specialty": "Wedding, Portrait, and Lifestyle Photography"
    }
  },
  {
    "name": "Girish Gupta Photography",
    "contact_details": {
      "phone": "(415) 305-6577",
      "website": "http://girishguptaphotography.com/",
      "location": "San Francisco, CA"
    }
  },
  {
    "name": "Glam By Kaurx",
    "contact_details": {
      "phone": "(559) 470-3882",
      "location": "Fresno, CA",
      "specialty": "Bridal Makeup and Hairstyling"
    }
  },
  {
    "name": "Glass Horse Media",
    "contact_details": {
      "phone": "(415) 300-5058",
      "website": "http://glasshorsemedia.com/",
      "location": "Bay Area, CA",
      "specialty": "Documentary Style Wedding Films"
    }
  },
  {
    "name": "Glimmer Glass Photography",
    "contact_details": {
      "phone": "(916) 246-0558",
      "website": "http://glimmerglassphotography.com/",
      "location": "Sacramento, CA"
    }
  },
  {
    "name": "Global Photo Video",
    "contact_details": {
      "phone": "(408) 823-3888",
      "website": "http://globalphotovideo.com/",
      "location": "San Jose, CA"
    }
  },
  {
    "name": "Glow Wedding And Events",
    "contact_details": {
      "phone": "(415) 505-1808",
      "website": "http://glowweddingevents.com/",
      "location": "San Francisco, CA"
    }
  },
  {
    "name": "Go Go Dholi",
    "contact_details": {
      "phone": "(408) 420-7469",
      "location": "Bay Area, CA",
      "specialty": "Professional Dhol Performance for Baraats"
    }
  },
  {
    "name": "Gokul Sweets & Restaurant",
    "contact_details": {
      "phone": "(510) 364-8171",
      "location": "42100 Blacow Rd, Fremont, CA 94538",
      "category": "Indian Sweets and Catering"
    }
  },
  {
    "name": "Gold Star Events",
    "contact_details": {
      "phone": "(510) 909-9889",
      "location": "Hayward, CA",
      "specialty": "Full-Service Event Coordination"
    }
  },
  {
    "name": "Golden Gate Photo Booth",
    "contact_details": {
      "phone": "(415) 275-4776",
      "website": "https://goldengatephotobooth.com/",
      "location": "San Francisco, CA"
    }
  },
  {
    "name": "Golden State Dholis",
    "contact_details": {
      "phone": "(510) 364-8171",
      "location": "Fremont / Bay Area, CA"
    }
  },
  {
    "name": "Golden State Productions",
    "contact_details": {
      "phone": "(408) 320-1378",
      "location": "Bay Area, CA",
      "specialty": "Sound, Lighting, and DJ Services"
    }
  }
]