[
  {
    "name": "Dharma Mandaps And Decors",
    "contact_details": {
      "phone": "(925) 321-1100",
      "website": "http://dharmamandaps.com/",
      "location": "Walnut Creek, CA"
    }
  },
  {
    "name": "Dhillon Photography",
    "contact_details": {
      "phone": "(510) 909-9889",
      "location": "California, USA",
      "specialty": "Rupinder Dhillon - Wedding Cinematography"
    }
  },
  {
    "name": "Dhwani Dedhiya Henna Artist",
    "contact_details": {
      "phone": "(408) 641-7148",
      "location": "4312 Albany Dr, San Jose, CA"
    }
  },
  {
    "name": "Diamond Events",
    "contact_details": {
      "phone": "(408) 320-1378",
      "website": "https://diamondevents.com/",
      "location": "Bay Area, CA"
    }
  },
  {
    "name": "Diamond Sonic",
    "contact_details": {
      "phone": "(650) 330-0111",
      "website": "http://diamondsonic.com/",
      "location": "3705 Haven Avenue, Menlo Park, CA"
    }
  },
  {
    "name": "Dil Se Henna Mehandi",
    "contact_details": {
      "phone": "(408) 724-7744",
      "location": "3436 Cunard Court, San Jose, CA"
    }
  },
  {
    "name": "Dimensional Designs By Moh",
    "contact_details": {
      "phone": "(510) 517-4686",
      "location": "Bay Area, CA"
    }
  },
  {
    "name": "Dinnies Delightful Entertainment",
    "contact_details": {
      "phone": "(415) 300-5058",
      "website": "http://dinniesentertainment.com/",
      "location": "San Francisco, CA"
    }
  },
  {
    "name": "Direct My Day",
    "contact_details": {
      "phone": "(408) 641-1188",
      "website": "http://directmyday.com/",
      "location": "Bay Area, CA"
    }
  },
  {
    "name": "Divin Dwellings Decors",
    "contact_details": {
      "phone": "(510) 508-4481",
      "location": "Fremont, CA"
    }
  },
  {
    "name": "Divine Creations",
    "contact_details": {
      "phone": "(209) 668-6623",
      "location": "Turlock, CA"
    }
  },
  {
    "name": "Divine Party Decor",
    "contact_details": {
      "phone": "(408) 896-1502",
      "location": "San Jose, CA"
    }
  },
  {
    "name": "Divine Shots Photography",
    "contact_details": {
      "phone": "(818) 412-4212",
      "website": "https://divineshots.com/",
      "location": "Canoga Park, CA"
    }
  },
  {
    "name": "Divyas Mehandi And Entertainment Services",
    "contact_details": {
      "phone": "(408) 641-7148",
      "location": "San Jose, CA"
    }
  },
  {
    "name": "Dj Hans Punjabi Style Ent",
    "contact_details": {
      "phone": "(925) 932-9019",
      "location": "Walnut Creek, CA"
    }
  }
]