[
  {
    "name": "Chandigarh Catering Company",
    "contact_details": {
      "phone": "(559) 470-3882",
      "location": "Fresno Area, CA",
      "specialty": "Traditional Punjabi and North Indian Catering"
    }
  },
  {
    "name": "Charms Beauty Parlor",
    "contact_details": {
      "phone": "(925) 265-6721",
      "location": "1968 Lambeth Way, San Ramon, CA 94582"
    }
  },
  {
    "name": "Chayachitra Media",
    "contact_details": {
      "phone": "(408) 320-1378",
      "website": "https://chayachitramedia.com/",
      "location": "3720 Peacock Court, Santa Clara, CA"
    }
  },
  {
    "name": "Cheri Tran Snaps",
    "contact_details": {
      "phone": "(415) 300-5058",
      "website": "http://cheritransnaps.com/",
      "location": "27th Avenue, San Francisco, CA"
    }
  },
  {
    "name": "Chic Papier",
    "contact_details": {
      "phone": "(415) 505-1808",
      "website": "http://chicpapier.com/",
      "location": "San Francisco, CA",
      "specialty": "Custom Luxury Wedding Invitations"
    }
  },
  {
    "name": "Chicago Shaadi Planners",
    "contact_details": {
      "phone": "(312) 626-4366",
      "website": "https://chicagoshaadiplanners.com/",
      "location": "Schaumburg, IL"
    }
  },
  {
    "name": "Chinaka Hoshi",
    "contact_details": {
      "phone": "(510) 909-9889",
      "website": "http://chinakahoshi.com/",
      "location": "Oakland, CA"
    }
  },
  {
    "name": "Chris Conroy Photography",
    "contact_details": {
      "phone": "(415) 305-6577",
      "website": "https://www.chrisconroyphotography.com/",
      "location": "Bay Area, CA"
    }
  },
  {
    "name": "Chris Karun Photography",
    "contact_details": {
      "website": "http://chriskarun.com/",
      "location": "San Francisco, CA"
    }
  },
  {
    "name": "Chrisman Studios",
    "contact_details": {
      "phone": "(510) 408-7136",
      "website": "http://www.chrismanstudios.com/",
      "location": "Bay Area, CA"
    }
  },
  {
    "name": "Cinema Butterfly",
    "contact_details": {
      "phone": "(559) 281-7896",
      "website": "https://www.cinemabutterfly.com/",
      "location": "Fresno, CA"
    }
  },
  {
    "name": "Cinematic Kulture",
    "contact_details": {
      "phone": "(408) 641-7148",
      "website": "https://cinematickulture.com/",
      "location": "Bay Area, CA"
    }
  },
  {
    "name": "Cinestudioimages",
    "contact_details": {
      "website": "http://cinestudioimages.com/",
      "location": "Bay Area, CA"
    }
  },
  {
    "name": "Classic Henna Designs By Purvi Shah",
    "contact_details": {
      "phone": "(408) 644-7502",
      "location": "Bay Area, CA",
      "specialty": "Bridal Mehndi and Traditional Art"
    }
  },
  {
    "name": "Click Arch Photography",
    "contact_details": {
      "phone": "(510) 517-4686",
      "location": "Fremont Boulevard, Fremont, CA 94536"
    }
  }
]