[
  {
    "name": "DKweddings",
    "contact_details": {
      "phone": "(408) 641-7148",
      "location": "Bay Area, CA",
      "specialty": "Candid Wedding Photography and Cinematography"
    }
  },
  {
    "name": "Dancing Leaf Events",
    "contact_details": {
      "phone": "(510) 909-9889",
      "website": "http://www.dancingleafevents.com/",
      "location": "Bay Area, CA"
    }
  },
  {
    "name": "Danny Rey Films",
    "contact_details": {
      "phone": "(415) 305-6577",
      "website": "https://www.dannyreyfilms.com/",
      "location": "San Francisco, CA"
    }
  },
  {
    "name": "Darbar Banquet Hall",
    "contact_details": {
      "phone": "(925) 432-2241",
      "website": "http://darbarhall.com/",
      "location": "3841 Railroad Ave, Pittsburg, CA 94565"
    }
  },
  {
    "name": "Dari Photography",
    "contact_details": {
      "phone": "(415) 300-5058",
      "website": "https://www.dariphotography.com/",
      "location": "Bay Area, CA"
    }
  },
  {
    "name": "Day N Night Videos",
    "contact_details": {
      "phone": "(559) 222-1144",
      "location": "3071 West Ashlan Avenue, Fresno, CA 93722"
    }
  },
  {
    "name": "Dazzle Your Day",
    "contact_details": {
      "phone": "(408) 823-3888",
      "location": "San Jose, CA",
      "specialty": "Event Planning and Personalized Decor"
    }
  },
  {
    "name": "Decor Queen's",
    "contact_details": {
      "phone": "(510) 508-4481",
      "location": "Fremont, CA",
      "specialty": "Floral Design and Stage Decor"
    }
  },
  {
    "name": "Dee Jay PDS",
    "contact_details": {
      "phone": "(408) 420-7469",
      "location": "San Jose, CA 95128",
      "specialty": "Multi-Genre Mobile DJ Services"
    }
  },
  {
    "name": "Dee Photo Factory",
    "contact_details": {
      "phone": "(408) 823-3888",
      "website": "http://deephotofactory.com/",
      "location": "Milpitas, CA"
    }
  },
  {
    "name": "Dee and Kris Photography",
    "contact_details": {
      "phone": "(916) 246-0558",
      "website": "https://deeandkrisphotography.com/",
      "location": "Sacramento, CA"
    }
  },
  {
    "name": "Deeksha Photography",
    "contact_details": {
      "phone": "(408) 641-7148",
      "location": "Bay Area, CA"
    }
  }
]