[
  {
    "name": "Himalayan Chef Events And Catering",
    "contact_details": {
      "phone": "(408) 641-7148",
      "location": "Bay Area, CA",
      "specialty": "Authentic Nepalese and Indian Event Catering"
    }
  },
  {
    "name": "Himalayan Refreshment Entertainment",
    "contact_details": {
      "phone": "(510) 508-4481",
      "location": "Oakland, CA",
      "category": "Live Music and Cultural Entertainment"
    }
  },
  {
    "name": "Hiral Henna",
    "contact_details": {
      "phone": "(415) 305-6577",
      "website": "http://hiralhenna.com/",
      "location": "San Francisco Bay Area, CA",
      "specialty": "Traditional Bridal Mehndi"
    }
  },
  {
    "name": "Hit Maker Films",
    "contact_details": {
      "phone": "(408) 320-1378",
      "location": "Bay Area, CA",
      "specialty": "Wedding Cinematography"
    }
  },
  {
    "name": "Holly D Photography",
    "contact_details": {
      "phone": "(415) 300-5058",
      "website": "http://hollydphotography.com/",
      "location": "Bay Area, CA"
    }
  },
  {
    "name": "Hollywood Haldi Supplies",
    "contact_details": {
      "phone": "(562) 402-1412",
      "location": "Cerritos, CA",
      "specialty": "Haldi Ceremony Essentials and Decor"
    }
  },
  {
    "name": "Hope Win Events",
    "contact_details": {
      "phone": "(925) 321-1100",
      "location": "San Ramon, CA",
      "category": "Event Coordination and Management"
    }
  },
  {
    "name": "Husnas Mehndi Services",
    "contact_details": {
      "phone": "(510) 909-9889",
      "location": "Bay Area, CA"
    }
  },
  {
    "name": "I Beauty Studio",
    "contact_details": {
      "phone": "(408) 293-8188",
      "location": "1678 Berryessa Rd, San Jose, CA"
    }
  },
  {
    "name": "I Design Events",
    "contact_details": {
      "phone": "(408) 540-7244",
      "website": "http://idesignevents.com/",
      "location": "1400 Coleman Ave, Santa Clara, CA"
    }
  },
  {
    "name": "I Do Dream Events",
    "contact_details": {
      "phone": "(510) 508-4481",
      "location": "Bay Area, CA"
    }
  },
  {
    "name": "IQ Photo",
    "contact_details": {
      "phone": "(415) 939-5877",
      "website": "https://www.iqphoto.com/",
      "location": "San Francisco, CA"
    }
  },
  {
    "name": "IQvideography",
    "contact_details": {
      "phone": "(415) 939-5877",
      "website": "https://www.iqvideography.com/",
      "location": "San Francisco, CA"
    }
  },
  {
    "name": "Image Beauty Salon",
    "contact_details": {
      "phone": "(408) 744-2212",
      "location": "834 West El Camino Real, Sunnyvale, CA 94087"
    }
  },
  {
    "name": "Image Thoughts Photography",
    "contact_details": {
      "phone": "(415) 305-6577",
      "location": "Bay Area, CA"
    }
  }
]