[
  {
    "name": "O'Connell Photography",
    "contact_details": {
      "phone": "(415) 305-6577",
      "website": "http://oconnellphotography.com/",
      "location": "San Francisco / Bay Area, CA",
      "specialty": "Wedding and Portrait Photography"
    }
  },
  {
    "name": "Oak Brook Smiles",
    "contact_details": {
      "phone": "(630) 364-8171",
      "website": "https://www.oakbrooksmiles.com/",
      "location": "Oak Brook, IL / Serving CA",
      "specialty": "Cosmetic Dentistry (Popular for pre-wedding treatments)"
    }
  },
  {
    "name": "Oasis Indian Cuisine",
    "contact_details": {
      "phone": "(408) 541-1188",
      "website": "https://oasisindiancuisine.com/",
      "location": "Santa Clara, CA",
      "specialty": "North & South Indian Catering"
    }
  },
  {
    "name": "Occasions To Celebrate",
    "contact_details": {
      "phone": "(510) 508-4481",
      "location": "Bay Area, CA",
      "specialty": "Event Planning and Decor"
    }
  },
  {
    "name": "One Stop Bridal",
    "contact_details": {
      "phone": "(408) 293-8188",
      "location": "San Jose, CA",
      "specialty": "Bridal Gowns, Alterations, and Styling"
    }
  },
  {
    "name": "Open Light Films",
    "contact_details": {
      "phone": "(415) 300-5058",
      "website": "https://openlightfilms.com/",
      "location": "San Francisco, CA",
      "specialty": "Cinematic Storytelling and Videography"
    }
  },
  {
    "name": "Original Weddings",
    "contact_details": {
      "phone": "(844) 709-1195",
      "website": "https://originalweddings.com/",
      "location": "San Francisco, CA",
      "specialty": "Photography, Videography, and Planning Packages"
    }
  },
  {
    "name": "Our Little Flower Shop",
    "contact_details": {
      "phone": "(760) 322-7775",
      "website": "https://ourlittleflowershop.com/",
      "location": "Palm Springs / Serving CA",
      "specialty": "Boutique Floral Design"
    }
  },
  {
    "name": "Outdoor Event Center At SJSU",
    "contact_details": {
      "phone": "(408) 924-6307",
      "website": "https://www.sjsuevents.com/",
      "location": "290 S 7th St, San Jose, CA 95192",
      "specialty": "Large Outdoor Venue for Weddings and Receptions"
    }
  },
  {
    "name": "PK Photography & Video",
    "contact_details": {
      "phone": "(510) 932-9019",
      "location": "Union City, CA",
      "specialty": "South Asian Wedding Documentation"
    }
  },
  {
    "name": "P.S. Paper",
    "contact_details": {
      "phone": "(415) 305-6577",
      "website": "https://pspaper.com/",
      "location": "San Francisco, CA",
      "specialty": "Custom Invitations and Stationery"
    }
  },
  {
    "name": "Paanwala",
    "contact_details": {
      "phone": "(408) 896-1502",
      "location": "Milpitas / San Jose, CA",
      "specialty": "Authentic Betel Leaf (Paan) Stations for Weddings"
    }
  },
  {
    "name": "Pacific Plaza Hotels",
    "contact_details": {
      "phone": "(510) 909-9889",
      "website": "http://www.pacificplazahotels.com/",
      "location": "Oakland, CA (HQ)",
      "specialty": "Room Blocks and Event Venue Spaces"
    }
  },
  {
    "name": "Padma's Henna",
    "contact_details": {
      "phone": "(408) 823-3888",
      "location": "San Jose, CA",
      "specialty": "Traditional and Modern Henna Art"
    }
  },
  {
    "name": "Palace Of Venues",
    "contact_details": {
      "phone": "(916) 246-0558",
      "location": "Sacramento, CA",
      "specialty": "Event Space Consulting and Sourcing"
    }
  }
]