[
  {
    "name": "Lily Rose Photography",
    "contact_details": {
      "phone": "(707) 603-9062",
      "website": "https://www.lilyrosephotography.com/",
      "location": "Bay Area / Napa, CA"
    }
  },
  {
    "name": "Limelight Productions",
    "contact_details": {
      "phone": "(408) 641-7148",
      "location": "Bay Area, CA",
      "specialty": "Event Planning and Management"
    }
  },
  {
    "name": "Lisa Stone Photography",
    "contact_details": {
      "phone": "(415) 305-6577",
      "website": "http://lisastonephotography.com/",
      "location": "Bay Area, CA"
    }
  },
  {
    "name": "Lite Lens Photography",
    "contact_details": {
      "phone": "(408) 896-1502",
      "location": "San Jose, CA"
    }
  },
  {
    "name": "Little Blue Box Weddings",
    "contact_details": {
      "phone": "(415) 300-5058",
      "location": "Bay Area, CA"
    }
  },
  {
    "name": "Little Magic Events",
    "contact_details": {
      "phone": "(510) 909-9889",
      "location": "Bay Area, CA"
    }
  },
  {
    "name": "Loic Nicolas Photography",
    "contact_details": {
      "phone": "(415) 305-6577",
      "website": "https://loicphoto.com/",
      "location": "San Francisco Bay Area, CA"
    }
  },
  {
    "name": "Lok Look Photography",
    "contact_details": {
      "phone": "(559) 470-3882",
      "location": "Fresno, CA"
    }
  },
  {
    "name": "Loma Spa",
    "contact_details": {
      "phone": "(408) 257-2444",
      "location": "10520 S De Anza Blvd suite a, Cupertino, CA 95014"
    }
  },
  {
    "name": "Lotus Decorations",
    "contact_details": {
      "phone": "(408) 823-3888",
      "location": "San Jose, CA",
      "specialty": "Floral and Backdrop Event Design"
    }
  },
  {
    "name": "Lux Wedding Studio",
    "contact_details": {
      "phone": "(650) 300-5058",
      "location": "Arizona Cactus Garden, Stanford, CA"
    }
  },
  {
    "name": "Luxuriant Events",
    "contact_details": {
      "phone": "(510) 932-9019",
      "location": "Bay Area, CA"
    }
  },
  {
    "name": "M&M Thread Salon",
    "contact_details": {
      "phone": "(415) 391-2323",
      "location": "545 Sutter Street, San Francisco, CA"
    }
  },
  {
    "name": "M Sutra Bride",
    "contact_details": {
      "phone": "(925) 321-1100",
      "location": "3333 Bear Ridge Way, Antioch, CA 94531",
      "specialty": "South Asian Bridal Makeup and Styling"
    }
  },
  {
    "name": "MALA Photography",
    "contact_details": {
      "phone": "(559) 903-3675",
      "location": "10571 North Jackson Avenue, Fresno, CA"
    }
  }
]