[
  {
    "name": "DC Photography Studios",
    "contact_details": {
      "phone": "(415) 601-5182",
      "website": "http://www.dcphotographystudios.com/",
      "location": "San Francisco, CA"
    }
  },
  {
    "name": "DJ Angel A Event Services",
    "contact_details": {
      "phone": "(559) 791-8845",
      "location": "Porterville, CA"
    }
  },
  {
    "name": "DJ Arjav",
    "contact_details": {
      "phone": "(510) 364-8171",
      "website": "http://djarjav.com/",
      "location": "Fremont, CA"
    }
  },
  {
    "name": "DJ Asif",
    "contact_details": {
      "phone": "(510) 396-4881",
      "location": "Fremont, CA"
    }
  },
  {
    "name": "DJ Awaaz",
    "contact_details": {
      "phone": "(415) 300-5058",
      "website": "http://www.djawaaz.com/",
      "location": "San Francisco, CA"
    }
  },
  {
    "name": "DJ Baldev",
    "contact_details": {
      "phone": "(559) 281-7896",
      "location": "Fresno, CA"
    }
  },
  {
    "name": "DJ ESGET",
    "contact_details": {
      "phone": "(530) 356-5509",
      "location": "Anderson / Redding, CA"
    }
  },
  {
    "name": "DJ Elan & Event Planners",
    "contact_details": {
      "phone": "(408) 641-7148",
      "location": "Bay Area, CA"
    }
  },
  {
    "name": "DJ Goldy",
    "contact_details": {
      "phone": "(559) 470-3882",
      "location": "Fresno, CA"
    }
  },
  {
    "name": "DJ Gurshan",
    "contact_details": {
      "phone": "(510) 508-4481",
      "location": "Alameda / Bay Area, CA"
    }
  },
  {
    "name": "DJ Hanibal",
    "contact_details": {
      "phone": "(408) 203-4903",
      "location": "5986 Montalvo Dr, San Jose, CA"
    }
  },
  {
    "name": "DJ K - Hollywood 2 Bollywood",
    "contact_details": {
      "phone": "(510) 508-4481",
      "location": "Fremont, CA"
    }
  },
  {
    "name": "DJ Karan Singh",
    "contact_details": {
      "phone": "(510) 909-9889",
      "location": "California"
    }
  },
  {
    "name": "DJ Karry",
    "contact_details": {
      "phone": "(415) 305-6577",
      "website": "http://djkarry.com/",
      "location": "San Francisco, CA"
    }
  },
  {
    "name": "DJ ManJ",
    "contact_details": {
      "phone": "(408) 420-7469",
      "website": "http://djmanj.com/",
      "location": "Sunnyvale, CA"
    }
  }
]