[
  {
    "name": "Ken Ta Impressions Photography",
    "contact_details": {
      "phone": "(415) 305-6577",
      "website": "http://kenta-impressions.com/",
      "location": "Bay Area, CA"
    }
  },
  {
    "name": "Kennedy Events",
    "contact_details": {
      "phone": "(415) 300-5058",
      "website": "https://kennedyevents.com/",
      "location": "San Francisco, CA",
      "specialty": "Corporate and Luxury Event Planning"
    }
  },
  {
    "name": "Kerala Wedding Photography",
    "contact_details": {
      "phone": "(408) 641-7148",
      "location": "California City, CA",
      "specialty": "Traditional South Indian Wedding Photography"
    }
  },
  {
    "name": "Keyuris",
    "contact_details": {
      "phone": "(510) 505-0744",
      "website": "http://www.keyuris.com/",
      "location": "120 Buck Ct, Fremont, CA",
      "specialty": "Bridal Mehndi and Traditional Henna"
    }
  },
  {
    "name": "Kiara Event Planning",
    "contact_details": {
      "phone": "(408) 320-1378",
      "location": "Bay Area, CA"
    }
  },
  {
    "name": "Kiarah Photography And Events",
    "contact_details": {
      "phone": "(650) 300-5058",
      "location": "714 Bounty Drive, Foster City, CA"
    }
  },
  {
    "name": "Kids Hair Salon",
    "contact_details": {
      "phone": "(408) 227-2444",
      "location": "960 Blossom Hill Rd, San Jose, CA"
    }
  },
  {
    "name": "Kiki Brows",
    "contact_details": {
      "phone": "(925) 552-0552",
      "location": "2435 San Ramon Valley Blvd, San Ramon, CA"
    }
  },
  {
    "name": "Kim And Niki Photographers",
    "contact_details": {
      "phone": "(415) 305-6577",
      "website": "https://kimandniki.com/",
      "location": "Bay Area, CA"
    }
  },
  {
    "name": "Kin Bates Digital DJ Service",
    "contact_details": {
      "phone": "(530) 356-5509",
      "location": "Anderson, CA"
    }
  },
  {
    "name": "King Captures Photography",
    "contact_details": {
      "phone": "(408) 823-3888",
      "location": "San Jose, CA"
    }
  },
  {
    "name": "King Studio",
    "contact_details": {
      "phone": "(510) 364-8171",
      "location": "Fremont, CA"
    }
  },
  {
    "name": "Kirna Jagraon",
    "contact_details": {
      "phone": "(510) 508-4481",
      "location": "Fremont, CA",
      "specialty": "Live Jagraon and Kirtan Performances"
    }
  },
  {
    "name": "Kirpan & Ceremonial Items Rental",
    "contact_details": {
      "phone": "(510) 364-8171",
      "location": "Fremont, CA",
      "specialty": "Rental of Traditional Sikh Wedding Swords and Items"
    }
  },
  {
    "name": "Knights Catering",
    "contact_details": {
      "phone": "(415) 922-4235",
      "website": "http://knightscatering.com/",
      "location": "San Francisco, CA"
    }
  },
  {
    "name": "Kodachrome Shots",
    "contact_details": {
      "phone": "(408) 320-1378",
      "location": "Bay Area, CA"
    }
  },
  {
    "name": "Kovalam Catering Service",
    "contact_details": {
      "phone": "(209) 832-1502",
      "location": "121 N Alta Dena St, Tracy, CA",
      "specialty": "South Indian and Kerala Cuisine"
    }
  }
]